{
"type": "FeatureCollection",
"crs": { "type": "name", "properties": { "name": "urn:ogc:def:crs:OGC:1.3:CRS84" } },

"features": [
{ "type": "Feature", "properties": { "NAME": "Chichen Itza", "Site_Name": "Chichen Itza", "State": "Yucatan", "Country": "Mexico", "Region": "Northern Lowlands", "Time_perio": "Late Classic", "ImagePath": "images/ChichenItza.jpg" }, "geometry": { "type": "Point", "coordinates": [ -88.5686, 20.68287 ] } },
{ "type": "Feature", "properties": { "NAME": "Coba", "Site_Name": "Coba", "State": "Quintana Roo", "Country": "Mexico", "Region": "Northern Lowlands", "Time_perio": "Early Preclassic", "ImagePath": "images/Coba.jpg" }, "geometry": { "type": "Point", "coordinates": [ -87.73307, 20.49104 ] } },
{ "type": "Feature", "properties": { "NAME": "Copan", "Site_Name": "Copan", "State": "Copan", "Country": "Honduras", "Region": "Southern Lowlands", "Time_perio": "Early Preclassic", "ImagePath": "images/Copan.jpg" }, "geometry": { "type": "Point", "coordinates": [ -89.13885, 14.84107 ] } },
{ "type": "Feature", "properties": { "NAME": "Kaminaljuyu", "Site_Name": "Kaminaljuyu", "State": "Guatemala", "Country": "Guatemala", "Region": "Highlands", "Time_perio": "Middle Preclassic", "ImagePath": "images/Kaminaljuyu.jpg" }, "geometry": { "type": "Point", "coordinates": [ -90.549, 14.63283333 ] } },
{ "type": "Feature", "properties": { "NAME": "Palenque", "Site_Name": "Palenque", "State": "Chiapas", "Country": "Mexico", "Region": "Southern Lowlands", "Time_perio": "Late Preclassic", "ImagePath": "images/Palenque.jpg" }, "geometry": { "type": "Point", "coordinates": [ -92.04583333, 17.484 ] } },
{ "type": "Feature", "properties": { "NAME": "Piedras Negras", "Site_Name": "Piedras Negras", "State": "Peten", "Country": "Guatemala", "Region": "Southern Lowlands", "Time_perio": "Late Preclassic", "ImagePath": "images/PiedrasNegras.jpg" }, "geometry": { "type": "Point", "coordinates": [ -91.26298, 17.16641 ] } },
{ "type": "Feature", "properties": { "NAME": "Tikal", "Site_Name": "Tikal", "State": "Peten", "Country": "Guatemala", "Region": "Southern Lowlands", "Time_perio": "Middle Preclassic", "ImagePath": "images/Tikal.jpg" }, "geometry": { "type": "Point", "coordinates": [ -89.63163, 17.21732 ] } },
{ "type": "Feature", "properties": { "NAME": "Uxmal", "Site_Name": "Uxmal", "State": "Yucatan", "Country": "Mexico", "Region": "Northern Lowlands", "Time_perio": "Late Classic", "ImagePath": "images/Uxmal.jpg" }, "geometry": { "type": "Point", "coordinates": [ -89.77066, 20.36031 ] } },
{ "type": "Feature", "properties": { "NAME": "Yaxchilan", "Site_Name": "Yaxchilan", "State": "Chiapas", "Country": "Mexico", "Region": "Southern Lowlands", "Time_perio": "Early Classic", "ImagePath": "images/Yaxchilan.jpg" }, "geometry": { "type": "Point", "coordinates": [ -90.9675, 16.89616667 ] } },
{ "type": "Feature", "properties": { "NAME": "Cahal Pech", "Site_Name": "Cahal Pech", "State": "Cayo", "Country": "Belize", "Region": "Southern Lowlands", "Time_perio": "Late Classic", "ImagePath": "images/CahalPech.jpg" }, "geometry": { "type": "Point", "coordinates": [ -89.07332764, 17.14509525 ] } },
{ "type": "Feature", "properties": { "NAME": "Dzibilchaltun", "Site_Name": "Dzibilchaltun", "State": "Yucatan", "Country": "Mexico", "Region": "Northern Lowlands", "Time_perio": "Middle Preclassic", "ImagePath": "images/Dzibilchaltun.jpg" }, "geometry": { "type": "Point", "coordinates": [ -89.59722833719016, 21.090914007385919 ] } },
{ "type": "Feature", "properties": { "NAME": "Ek Balam", "Site_Name": "Ek Balam", "State": "Yucatan", "Country": "Mexico", "Region": "Northern Lowlands", "Time_perio": "Classic", "ImagePath": "images/EkBalam.jpg" }, "geometry": { "type": "Point", "coordinates": [ -88.13583333, 20.892 ] } },
{ "type": "Feature", "properties": { "NAME": "Labna", "Site_Name": "Labna", "State": "Yucatan", "Country": "Mexico", "Region": "Northern Lowlands", "Time_perio": "Terminal Classic", "ImagePath": "images/Labna.jpg" }, "geometry": { "type": "Point", "coordinates": [ -89.578716666666665, 20.171183333333332 ] } },
{ "type": "Feature", "properties": { "NAME": "Lamanai", "Site_Name": "Lamanai", "State": "Orange Walk", "Country": "Belize", "Region": "Southern Lowlands", "Time_perio": "Middle Preclassic", "ImagePath": "images/Lamanai.jpg" }, "geometry": { "type": "Point", "coordinates": [ -88.65251, 17.76752 ] } },
{ "type": "Feature", "properties": { "NAME": "Mayapan", "Site_Name": "Mayapan", "State": "Yucatan", "Country": "Mexico", "Region": "Northern Lowlands", "Time_perio": "Early Postclassic", "ImagePath": "images/Mayapan.jpg" }, "geometry": { "type": "Point", "coordinates": [ -89.461, 20.629 ] } },
{ "type": "Feature", "properties": { "NAME": "Naranjo", "Site_Name": "Naranjo", "State": "Peten", "Country": "Guatemala", "Region": "Southern Lowlands", "Time_perio": "Classic", "ImagePath": "images/Naranjo.jpg" }, "geometry": { "type": "Point", "coordinates": [ -90.54045, 14.65148 ] } },
{ "type": "Feature", "properties": { "NAME": "Quirigua", "Site_Name": "Quirigua", "State": "Izabal", "Country": "Guatemala", "Region": "Southern Lowlands", "Time_perio": "Early Classic", "ImagePath": "images/Quirigua.jpg" }, "geometry": { "type": "Point", "coordinates": [ -89.04007, 15.27023 ] } },
{ "type": "Feature", "properties": { "NAME": "Tulum", "Site_Name": "Tulum", "State": "Quintana Roo", "Country": "Mexico", "Region": "Northern Lowlands", "Time_perio": "Early Postclassic", "ImagePath": "images/Tulum.jpg" }, "geometry": { "type": "Point", "coordinates": [ -87.428766666666661, 20.214316666666665 ] } },
{ "type": "Feature", "properties": { "NAME": "Xunantunich", "Site_Name": "Xunantunich", "State": "Cayo", "Country": "Belize", "Region": "Southern Lowlands", "Time_perio": "Late Classic", "ImagePath": "images/Xunantunich.jpg" }, "geometry": { "type": "Point", "coordinates": [ -89.14145, 17.08926 ] } },
{ "type": "Feature", "properties": { "NAME": "Bonampak", "Site_Name": "Bonampak", "State": "Chiapas", "Country": "Mexico", "Region": "Southern Lowlands", "Time_perio": "Late Classic", "ImagePath": "images/Bonampak.jpg" }, "geometry": { "type": "Point", "coordinates": [ -91.06483333, 16.7045 ] } }
]
}
